{
"type": "FeatureCollection",
"name": "GP Practice by PCN and Location",
"description": "03Q, CoordPrec 6",
"crs": { "type": "name", "properties": { "name": "urn:ogc:def:crs:OGC:1.3:CRS84" } },
"features": [
{ "type": "Feature", "properties": { "parent": "03Q", "orgCode": "B81036", "orgName": null, "type": "main", "pcn_name": "York East" }, "geometry": { "type": "Point", "coordinates": [ -0.781236, 53.924528 ] } },
{ "type": "Feature", "properties": { "parent": "03Q", "orgCode": "B82002", "orgName": null, "type": "main", "pcn_name": "South Hambleton And Ryedale" }, "geometry": { "type": "Point", "coordinates": [ -1.192496, 54.125406 ] } },
{ "type": "Feature", "properties": { "parent": "03Q", "orgCode": "B82005", "orgName": null, "type": "main", "pcn_name": "Priory Medical Group" }, "geometry": { "type": "Point", "coordinates": [ -1.129435, 53.949388 ] } },
{ "type": "Feature", "properties": { "parent": "03Q", "orgCode": "B82018", "orgName": null, "type": "main", "pcn_name": "Selby Town" }, "geometry": { "type": "Point", "coordinates": [ -1.046128, 53.880068 ] } },
{ "type": "Feature", "properties": { "parent": "03Q", "orgCode": "B82021", "orgName": null, "type": "main", "pcn_name": "York City Centre" }, "geometry": { "type": "Point", "coordinates": [ -1.096902, 53.952258 ] } },
{ "type": "Feature", "properties": { "parent": "03Q", "orgCode": "B82026", "orgName": null, "type": "main", "pcn_name": "West, Outer and North East York" }, "geometry": { "type": "Point", "coordinates": [ -1.081866, 54.019329 ] } },
{ "type": "Feature", "properties": { "parent": "03Q", "orgCode": "B82031", "orgName": null, "type": "main", "pcn_name": "Tadcaster & Selby Rural Area" }, "geometry": { "type": "Point", "coordinates": [ -1.253519, 53.798594 ] } },
{ "type": "Feature", "properties": { "parent": "03Q", "orgCode": "B82033", "orgName": null, "type": "main", "pcn_name": "South Hambleton And Ryedale" }, "geometry": { "type": "Point", "coordinates": [ -0.781434, 54.24494 ] } },
{ "type": "Feature", "properties": { "parent": "03Q", "orgCode": "B82041", "orgName": null, "type": "main", "pcn_name": "Selby Town" }, "geometry": { "type": "Point", "coordinates": [ -1.08053, 53.77494 ] } },
{ "type": "Feature", "properties": { "parent": "03Q", "orgCode": "B82047", "orgName": null, "type": "main", "pcn_name": "York City Centre" }, "geometry": { "type": "Point", "coordinates": [ -1.075209, 53.946484 ] } },
{ "type": "Feature", "properties": { "parent": "03Q", "orgCode": "B82064", "orgName": null, "type": "main", "pcn_name": "South Hambleton And Ryedale" }, "geometry": { "type": "Point", "coordinates": [ -1.214502, 54.071077 ] } },
{ "type": "Feature", "properties": { "parent": "03Q", "orgCode": "B82068", "orgName": null, "type": "main", "pcn_name": "South Hambleton And Ryedale" }, "geometry": { "type": "Point", "coordinates": [ -1.056418, 54.249239 ] } },
{ "type": "Feature", "properties": { "parent": "03Q", "orgCode": "B82071", "orgName": null, "type": "main", "pcn_name": "West, Outer and North East York" }, "geometry": { "type": "Point", "coordinates": [ -1.142382, 53.916145 ] } },
{ "type": "Feature", "properties": { "parent": "03Q", "orgCode": "B82073", "orgName": null, "type": "main", "pcn_name": "Tadcaster & Selby Rural Area" }, "geometry": { "type": "Point", "coordinates": [ -1.249172, 53.779278 ] } },
{ "type": "Feature", "properties": { "parent": "03Q", "orgCode": "B82074", "orgName": null, "type": "main", "pcn_name": "Selby Town" }, "geometry": { "type": "Point", "coordinates": [ -1.067663, 53.781106 ] } },
{ "type": "Feature", "properties": { "parent": "03Q", "orgCode": "B82077", "orgName": null, "type": "main", "pcn_name": "South Hambleton And Ryedale" }, "geometry": { "type": "Point", "coordinates": [ -0.933976, 54.269403 ] } },
{ "type": "Feature", "properties": { "parent": "03Q", "orgCode": "B82079", "orgName": null, "type": "main", "pcn_name": "South Hambleton And Ryedale" }, "geometry": { "type": "Point", "coordinates": [ -1.108927, 54.103615 ] } },
{ "type": "Feature", "properties": { "parent": "03Q", "orgCode": "B82080", "orgName": null, "type": "main", "pcn_name": "York East" }, "geometry": { "type": "Point", "coordinates": [ -1.034647, 54.03894 ] } },
{ "type": "Feature", "properties": { "parent": "03Q", "orgCode": "B82081", "orgName": null, "type": "main", "pcn_name": "York East" }, "geometry": { "type": "Point", "coordinates": [ -0.94883, 53.924997 ] } },
{ "type": "Feature", "properties": { "parent": "03Q", "orgCode": "B82083", "orgName": null, "type": "main", "pcn_name": "York Medical Group" }, "geometry": { "type": "Point", "coordinates": [ -1.119408, 53.955921 ] } },
{ "type": "Feature", "properties": { "parent": "03Q", "orgCode": "B82097", "orgName": null, "type": "main", "pcn_name": "Selby Town" }, "geometry": { "type": "Point", "coordinates": [ -1.07483, 53.785053 ] } },
{ "type": "Feature", "properties": { "parent": "03Q", "orgCode": "B82098", "orgName": null, "type": "main", "pcn_name": "York City Centre" }, "geometry": { "type": "Point", "coordinates": [ -1.077289, 53.95921 ] } },
{ "type": "Feature", "properties": { "parent": "03Q", "orgCode": "B82100", "orgName": null, "type": "main", "pcn_name": "West, Outer and North East York" }, "geometry": { "type": "Point", "coordinates": [ -1.126923, 53.954403 ] } },
{ "type": "Feature", "properties": { "parent": "03Q", "orgCode": "B82105", "orgName": null, "type": "main", "pcn_name": "Tadcaster & Selby Rural Area" }, "geometry": { "type": "Point", "coordinates": [ -1.25824, 53.885494 ] } },
{ "type": "Feature", "properties": { "parent": "03Q", "orgCode": "B82619", "orgName": null, "type": "main", "pcn_name": "South Hambleton And Ryedale" }, "geometry": { "type": "Point", "coordinates": [ -0.973687, 54.128827 ] } },
{ "type": "Feature", "properties": { "parent": "B82005", "orgCode": "B82005001", "orgName": "Clementhorpe, Cherry Street", "type": "site", "pcn_name": "Priory Medical Group" }, "geometry": { "type": "Point", "coordinates": [ -1.082907, 53.951837 ] } },
{ "type": "Feature", "properties": { "parent": "B82005", "orgCode": "B82005002", "orgName": "Lavender Grove Surgery", "type": "site", "pcn_name": "Priory Medical Group" }, "geometry": { "type": "Point", "coordinates": [ -1.116125, 53.964184 ] } },
{ "type": "Feature", "properties": { "parent": "B82005", "orgCode": "B82005003", "orgName": "Rawcliffe Surgery, Water Lane", "type": "site", "pcn_name": "Priory Medical Group" }, "geometry": { "type": "Point", "coordinates": [ -1.097574, 53.974068 ] } },
{ "type": "Feature", "properties": { "parent": "B82005", "orgCode": "B82005004", "orgName": "Heworth Green", "type": "site", "pcn_name": "Priory Medical Group" }, "geometry": { "type": "Point", "coordinates": [ -1.071582, 53.965709 ] } },
{ "type": "Feature", "properties": { "parent": "B82005", "orgCode": "B82005005", "orgName": "Fulford Surgery", "type": "site", "pcn_name": "Priory Medical Group" }, "geometry": { "type": "Point", "coordinates": [ -1.075644, 53.937131 ] } },
{ "type": "Feature", "properties": { "parent": "B82005", "orgCode": "B82005006", "orgName": "Tang Hall Lane Surgery", "type": "site", "pcn_name": "Priory Medical Group" }, "geometry": { "type": "Point", "coordinates": [ -1.04876, 53.957118 ] } },
{ "type": "Feature", "properties": { "parent": "B82005", "orgCode": "B82005007", "orgName": "Parkview Surgery", "type": "site", "pcn_name": "Priory Medical Group" }, "geometry": { "type": "Point", "coordinates": [ -1.056621, 53.954555 ] } },
{ "type": "Feature", "properties": { "parent": "B82005", "orgCode": "B82005008", "orgName": "Victoria Way Surgery", "type": "site", "pcn_name": "Priory Medical Group" }, "geometry": { "type": "Point", "coordinates": [ -1.064432, 53.979369 ] } },
{ "type": "Feature", "properties": { "parent": "B82018", "orgCode": "B82018003", "orgName": "North Duffield", "type": "site", "pcn_name": "Selby Town" }, "geometry": { "type": "Point", "coordinates": [ -0.960858, 53.825071 ] } },
{ "type": "Feature", "properties": { "parent": "B82026", "orgCode": "B82026001", "orgName": "New Earswick", "type": "site", "pcn_name": "West, Outer and North East York" }, "geometry": { "type": "Point", "coordinates": [ -1.076508, 53.989727 ] } },
{ "type": "Feature", "properties": { "parent": "B82026", "orgCode": "B82026002", "orgName": "Huntington", "type": "site", "pcn_name": "West, Outer and North East York" }, "geometry": { "type": "Point", "coordinates": [ -1.05518, 53.998747 ] } },
{ "type": "Feature", "properties": { "parent": "B82026", "orgCode": "B82026003", "orgName": "Stockton On Forest", "type": "site", "pcn_name": "West, Outer and North East York" }, "geometry": { "type": "Point", "coordinates": [ -1.00483, 53.993271 ] } },
{ "type": "Feature", "properties": { "parent": "B82026", "orgCode": "B82026004", "orgName": "Gale Farm Surgery", "type": "site", "pcn_name": "West, Outer and North East York" }, "geometry": { "type": "Point", "coordinates": [ -1.131176, 53.953598 ] } },
{ "type": "Feature", "properties": { "parent": "B82026", "orgCode": "B82026005", "orgName": "The Old Forge", "type": "site", "pcn_name": "West, Outer and North East York" }, "geometry": { "type": "Point", "coordinates": [ -1.153599, 53.980318 ] } },
{ "type": "Feature", "properties": { "parent": "B82031", "orgCode": "B82031001", "orgName": "Church Fenton", "type": "site", "pcn_name": "Tadcaster & Selby Rural Area" }, "geometry": { "type": "Point", "coordinates": [ -1.256527, 53.818234 ] } },
{ "type": "Feature", "properties": { "parent": "B82031", "orgCode": "B82031002", "orgName": "Ulleskelf", "type": "site", "pcn_name": "Tadcaster & Selby Rural Area" }, "geometry": { "type": "Point", "coordinates": [ -1.213746, 53.855145 ] } },
{ "type": "Feature", "properties": { "parent": "B82033", "orgCode": "B82033001", "orgName": "Thornton Le Dale", "type": "site", "pcn_name": "South Hambleton And Ryedale" }, "geometry": { "type": "Point", "coordinates": [ -0.720117, 54.237258 ] } },
{ "type": "Feature", "properties": { "parent": "B82041", "orgCode": "B82041001", "orgName": "Carlton", "type": "site", "pcn_name": "Selby Town" }, "geometry": { "type": "Point", "coordinates": [ -1.020318, 53.709801 ] } },
{ "type": "Feature", "properties": { "parent": "B82047", "orgCode": "B82047001", "orgName": "Unity Health", "type": "site", "pcn_name": "York City Centre" }, "geometry": { "type": "Point", "coordinates": [ -1.036006, 53.954391 ] } },
{ "type": "Feature", "properties": { "parent": "B82047", "orgCode": "B82047002", "orgName": "Unity Health", "type": "site", "pcn_name": "York City Centre" }, "geometry": { "type": "Point", "coordinates": [ -1.053544, 53.948419 ] } },
{ "type": "Feature", "properties": { "parent": "B82071", "orgCode": "B82071001", "orgName": "Bishopthorpe", "type": "site", "pcn_name": "West, Outer and North East York" }, "geometry": { "type": "Point", "coordinates": [ -1.098605, 53.922727 ] } },
{ "type": "Feature", "properties": { "parent": "B82073", "orgCode": "B82073001", "orgName": "Thorpe Willoughby", "type": "site", "pcn_name": "Tadcaster & Selby Rural Area" }, "geometry": { "type": "Point", "coordinates": [ -1.124858, 53.771092 ] } },
{ "type": "Feature", "properties": { "parent": "B82073", "orgCode": "B82073002", "orgName": "Micklefield", "type": "site", "pcn_name": "Tadcaster & Selby Rural Area" }, "geometry": { "type": "Point", "coordinates": [ -1.332534, 53.795303 ] } },
{ "type": "Feature", "properties": { "parent": "B82074", "orgCode": "B82074002", "orgName": "Hemingbrough", "type": "site", "pcn_name": "Selby Town" }, "geometry": { "type": "Point", "coordinates": [ -0.97894, 53.77055 ] } },
{ "type": "Feature", "properties": { "parent": "B82080", "orgCode": "B82080001", "orgName": "Stamford Bridge", "type": "site", "pcn_name": "York East" }, "geometry": { "type": "Point", "coordinates": [ -0.914472, 53.990207 ] } },
{ "type": "Feature", "properties": { "parent": "B82080", "orgCode": "B82080002", "orgName": "Huntington Surgery", "type": "site", "pcn_name": "York East" }, "geometry": { "type": "Point", "coordinates": [ -1.056242, 53.995636 ] } },
{ "type": "Feature", "properties": { "parent": "B82080", "orgCode": "B82080003", "orgName": "Dunnington Surgery", "type": "site", "pcn_name": "York East" }, "geometry": { "type": "Point", "coordinates": [ -0.978176, 53.966119 ] } },
{ "type": "Feature", "properties": { "parent": "B82081", "orgCode": "B82081001", "orgName": "Dunnington", "type": "site", "pcn_name": "York East" }, "geometry": { "type": "Point", "coordinates": [ -0.978131, 53.964232 ] } },
{ "type": "Feature", "properties": { "parent": "B82081", "orgCode": "B82081002", "orgName": "Wheldrake", "type": "site", "pcn_name": "York East" }, "geometry": { "type": "Point", "coordinates": [ -0.965914, 53.896122 ] } },
{ "type": "Feature", "properties": { "parent": "B82083", "orgCode": "B82083001", "orgName": "Campus Medical Practice", "type": "site", "pcn_name": "York Medical Group" }, "geometry": { "type": "Point", "coordinates": [ -1.079543, 53.964844 ] } },
{ "type": "Feature", "properties": { "parent": "B82083", "orgCode": "B82083002", "orgName": "Monkgate Medical Practice", "type": "site", "pcn_name": "York Medical Group" }, "geometry": { "type": "Point", "coordinates": [ -1.076387, 53.964155 ] } },
{ "type": "Feature", "properties": { "parent": "B82083", "orgCode": "B82083003", "orgName": "Woodthorpe", "type": "site", "pcn_name": "York Medical Group" }, "geometry": { "type": "Point", "coordinates": [ -1.122832, 53.93584 ] } },
{ "type": "Feature", "properties": { "parent": "B82083", "orgCode": "B82083004", "orgName": "The Surgery", "type": "site", "pcn_name": "York Medical Group" }, "geometry": { "type": "Point", "coordinates": [ -1.091562, 53.966572 ] } },
{ "type": "Feature", "properties": { "parent": "B82083", "orgCode": "B82083005", "orgName": "Minster Health", "type": "site", "pcn_name": "York Medical Group" }, "geometry": { "type": "Point", "coordinates": [ -1.076664, 53.964058 ] } },
{ "type": "Feature", "properties": { "parent": "B82098", "orgCode": "B82098001", "orgName": "South Bank Mc", "type": "site", "pcn_name": "York City Centre" }, "geometry": { "type": "Point", "coordinates": [ -1.086697, 53.944379 ] } },
{ "type": "Feature", "properties": { "parent": "B82098", "orgCode": "B82098002", "orgName": "Gillygate Surgery", "type": "site", "pcn_name": "York City Centre" }, "geometry": { "type": "Point", "coordinates": [ -1.084401, 53.96365 ] } },
{ "type": "Feature", "properties": { "parent": "B82100", "orgCode": "B82100001", "orgName": "Copmanthorpe Branch", "type": "site", "pcn_name": "West, Outer and North East York" }, "geometry": { "type": "Point", "coordinates": [ -1.14145, 53.915563 ] } },
{ "type": "Feature", "properties": { "parent": "B82041", "orgCode": "B82041002", "orgName": "Riccall", "type": "site", "pcn_name": "Selby Town" }, "geometry": { "type": "Point", "coordinates": [ -1.057797, 53.831947 ] } },
{ "type": "Feature", "properties": { "parent": "B82083", "orgCode": "B82083006", "orgName": "Clifton Medical Practice", "type": "site", "pcn_name": "York Medical Group" }, "geometry": { "type": "Point", "coordinates": [ -1.094453, 53.971069 ] } },
{ "type": "Feature", "properties": { "parent": "B82083", "orgCode": "B82083007", "orgName": "Petergate Surgery", "type": "site", "pcn_name": "York Medical Group" }, "geometry": { "type": "Point", "coordinates": [ -1.099878, 53.98532 ] } },
{ "type": "Feature", "properties": { "parent": "B82083", "orgCode": "B82083008", "orgName": "Skelton (formerly B82003001)", "type": "site", "pcn_name": "York Medical Group" }, "geometry": { "type": "Point", "coordinates": [ -1.134505, 54.001079 ] } }
]
}
